seconds,latitude,longitude,height,heave,northVelocity,eastVelocity,downVelocity,roll,pitch,heading,rollRate,pitchRate,yawRate,time,air_gap,Wavex_Hm0,RangeFinder_Hm0,Wave directional spectrum,Calculated_Hm0,Calculated_Dm
1698746400.2419,62.44626995176077,5.926163038238883,5000,22.0,-7.0,-6.0,-20.0,-0.889892578125,-1.439208984375,85.572509765625,2.0599365234375,-0.4888916015625,-0.52734375,2023-10-31 10:00:00.000,4.794,,0.78,,,
1698746401.2419,62.4462676886469,5.926161780953407,5034,-3.0,-35.0,-4.0,-24.0,1.95556640625,-1.38427734375,85.067138671875,3.0487060546875,0.450439453125,-0.4449462890625,2023-10-31 10:00:01.000,4.671,,,,,
1698746402.2419,62.446264503523714,5.926161613315344,5053,-17.0,-24.0,2.0,-2.0,3.7738037109375,-0.823974609375,84.83642578125,0.1318359375,0.4998779296875,0.010986328125,2023-10-31 10:00:02.000,4.8610000000000015,,,,,
1698746403.2419,62.44626425206661,5.926162367686629,5045,-7.0,17.0,6.0,17.0,1.812744140625,-0.6317138671875,85.089111328125,-3.4991455078125,-0.1373291015625,0.3350830078125,2023-10-31 10:00:03.000,5.125,,,"{""data"":[[-999.99,-999.99,-999.99,-999.99,-999.99,-999.99,-999.99,-999.99,-999.99,-999.99,-999.99,-999.99,-999.99,-999.99,-999.99,-999.99,-999.99,-999.99,-999.99,-999.99,-999.99,-999.99,-999.99,-999.99,-999.99,-999.99,-999.99,-999.99,-999.99,-999.99,-999.99,-999.99],[-999.99,-999.99,-999.99,-999.99,-999.99,-999.99,-999.99,-999.99,-999.99,-999.99,-999.99,-999.99,-999.99,-999.99,-999.99,-999.99,-999.99,-999.99,-999.99,-999.99,-999.99,-999.99,-999.99,-999.99,-999.99,-999.99,-999.99,-999.99,-999.99,-999.99,-999.99,-999.99],[-999.99,-999.99,-999.99,-999.99,-999.99,-999.99,-999.99,-999.99,-999.99,-999.99,-999.99,-999.99,-999.99,-999.99,-999.99,-999.99,-999.99,-999.99,-999.99,-999.99,-999.99,-999.99,-999.99,-999.99,-999.99,-999.99,-999.99,-999.99,-999.99,-999.99,-999.99,-999.99],[-999.99,-999.99,-999.99,-999.99,-999.99,-999.99,-999.99,-999.99,-999.99,-999.99,-999.99,-999.99,-999.99,-999.99,-999.99,-999.99,-999.99,-999.99,-999.99,-999.99,-999.99,-999.99,-999.99,-999.99,-999.99,-999.99,-999.99,-999.99,-999.99,-999.99,-999.99,-999.99],[-999.99,-999.99,-999.99,-999.99,-999.99,-999.99,-999.99,-999.99,-999.99,-999.99,-999.99,-999.99,-999.99,-999.99,-999.99,-999.99,-999.99,-999.99,-999.99,-999.99,-999.99,-999.99,-999.99,-999.99,-999.99,-999.99,-999.99,-999.99,-999.99,-999.99,-999.99,-999.99],[-999.99,-999.99,-999.99,-999.99,-999.99,-999.99,-999.99,-999.99,-999.99,-999.99,-999.99,-999.99,-999.99,-999.99,-999.99,-999.99,-999.99,-999.99,-999.99,-999.99,-999.99,-999.99,-999.99,-999.99,-999.99,-999.99,-999.99,-999.99,-999.99,-999.99,-999.99,-999.99],[-999.99,-999.99,-999.99,-999.99,-999.99,-999.99,-999.99,-999.99,-999.99,-999.99,-999.99,-999.99,-999.99,-999.99,-999.99,-999.99,-999.99,-999.99,-999.99,-999.99,-999.99,-999.99,-999.99,-999.99,-999.99,-999.99,-999.99,-999.99,-999.99,-999.99,-999.99,-999.99],[-999.99,-999.99,-999.99,-999.99,-999.99,-999.99,-999.99,-999.99,-999.99,-999.99,-999.99,-999.99,-999.99,-999.99,-999.99,-999.99,-999.99,-999.99,-999.99,-999.99,-999.99,-999.99,-999.99,-999.99,-999.99,-999.99,-999.99,-999.99,-999.99,-999.99,-999.99,-999.99],[-999.99,-999.99,-999.99,-999.99,-999.99,-999.99,-999.99,-999.99,-999.99,-999.99,-999.99,-999.99,-999.99,-999.99,-999.99,-999.99,-999.99,-999.99,-999.99,-999.99,-999.99,-999.99,-999.99,-999.99,-999.99,-999.99,-999.99,-999.99,-999.99,-999.99,-999.99,-999.99],[-999.99,-999.99,-999.99,-999.99,-999.99,-999.99,-999.99,-999.99,-999.99,-999.99,-999.99,-999.99,-999.99,-999.99,-999.99,-999.99,-999.99,-999.99,-999.99,-999.99,-999.99,-999.99,-999.99,-999.99,-999.99,-999.99,-999.99,-999.99,-999.99,-999.99,-999.99,-999.99],[-999.99,-999.99,-999.99,-999.99,-999.99,-999.99,-999.99,-999.99,-999.99,-999.99,-999.99,-999.99,-999.99,-999.99,-999.99,-999.99,-999.99,-999.99,-999.99,-999.99,-999.99,-999.99,-999.99,-999.99,-999.99,-999.99,-999.99,-999.99,-999.99,-999.99,-999.99,-999.99],[-999.99,-999.99,-999.99,-999.99,-999.99,-999.99,-999.99,-999.99,-999.99,-999.99,-999.99,-999.99,-999.99,-999.99,-999.99,-999.99,-999.99,-999.99,-999.99,-999.99,-999.99,-999.99,-999.99,-999.99,-999.99,-999.99,-999.99,-999.99,-999.99,-999.99,-999.99,-999.99],[-999.99,-999.99,-999.99,-999.99,-999.99,-999.99,-999.99,-999.99,-999.99,-999.99,-999.99,-999.99,-999.99,-999.99,-999.99,-999.99,-999.99,-999.99,-999.99,-999.99,-999.99,-999.99,-999.99,-999.99,-999.99,-999.99,-999.99,-999.99,-999.99,-999.99,-999.99,-999.99],[-999.99,-999.99,-999.99,-999.99,-999.99,-999.99,-999.99,-999.99,-999.99,-999.99,-999.99,-999.99,-999.99,-999.99,-999.99,-999.99,-999.99,-999.99,-999.99,-999.99,-999.99,-999.99,-999.99,-999.99,-999.99,-999.99,-999.99,-999.99,-999.99,-999.99,-999.99,-999.99],[-999.99,-999.99,-999.99,-999.99,-999.99,-999.99,-999.99,-999.99,-999.99,-999.99,-999.99,-999.99,-999.99,-999.99,-999.99,-999.99,-999.99,-999.99,-999.99,-999.99,-999.99,-999.99,-999.99,-999.99,-999.99,-999.99,-999.99,-999.99,-999.99,-999.99,-999.99,-999.99],[-999.99,-999.99,-999.99,-999.99,-999.99,-999.99,-999.99,-999.99,-999.99,-999.99,-999.99,-999.99,-999.99,-999.99,-999.99,-999.99,-999.99,-999.99,-999.99,-999.99,-999.99,-999.99,-999.99,-999.99,-999.99,-999.99,-999.99,-999.99,-999.99,-999.99,-999.99,-999.99],[-999.99,-999.99,-999.99,-999.99,-999.99,-999.99,-999.99,-999.99,-999.99,-999.99,-999.99,-999.99,-999.99,-999.99,-999.99,-999.99,-999.99,-999.99,-999.99,-999.99,-999.99,-999.99,-999.99,-999.99,-999.99,-999.99,-999.99,-999.99,-999.99,-999.99,-999.99,-999.99],[-999.99,-999.99,-999.99,-999.99,-999.99,-999.99,-999.99,-999.99,-999.99,-999.99,-999.99,-999.99,-999.99,-999.99,-999.99,-999.99,-999.99,-999.99,-999.99,-999.99,-999.99,-999.99,-999.99,-999.99,-999.99,-999.99,-999.99,-999.99,-999.99,-999.99,-999.99,-999.99],[-999.99,-999.99,-999.99,-999.99,-999.99,-999.99,-999.99,-999.99,-999.99,-999.99,-999.99,-999.99,-999.99,-999.99,-999.99,-999.99,-999.99,-999.99,-999.99,-999.99,-999.99,-999.99,-999.99,-999.99,-999.99,-999.99,-999.99,-999.99,-999.99,-999.99,-999.99,-999.99],[-999.99,-999.99,-999.99,-999.99,-999.99,-999.99,-999.99,-999.99,-999.99,-999.99,-999.99,-999.99,-999.99,-999.99,-999.99,-999.99,-999.99,-999.99,-999.99,-999.99,-999.99,-999.99,-999.99,-999.99,-999.99,-999.99,-999.99,-999.99,-999.99,-999.99,-999.99,-999.99],[-999.99,-999.99,-999.99,-999.99,-999.99,-999.99,-999.99,-999.99,-999.99,-999.99,-999.99,-999.99,-999.99,-999.99,-999.99,-999.99,-999.99,-999.99,-999.99,-999.99,-999.99,-999.99,-999.99,-999.99,-999.99,-999.99,-999.99,-999.99,-999.99,-999.99,-999.99,-999.99],[-999.99,-999.99,-999.99,-999.99,-999.99,-999.99,-999.99,-999.99,-999.99,-999.99,-999.99,-999.99,-999.99,-999.99,-999.99,-999.99,-999.99,-999.99,-999.99,-999.99,-999.99,-999.99,-999.99,-999.99,-999.99,-999.99,-999.99,-999.99,-999.99,-999.99,-999.99,-999.99],[-999.99,-999.99,-999.99,-999.99,-999.99,-999.99,-999.99,-999.99,-999.99,-999.99,-999.99,-999.99,-999.99,-999.99,-999.99,-999.99,-999.99,-999.99,-999.99,-999.99,-999.99,-999.99,-999.99,-999.99,-999.99,-999.99,-999.99,-999.99,-999.99,-999.99,-999.99,-999.99],[-999.99,-999.99,-999.99,-999.99,-999.99,-999.99,-999.99,-999.99,-999.99,-999.99,-999.99,-999.99,-999.99,-999.99,-999.99,-999.99,-999.99,-999.99,-999.99,-999.99,-999.99,-999.99,-999.99,-999.99,-999.99,-999.99,-999.99,-999.99,-999.99,-999.99,-999.99,-999.99],[-999.99,-999.99,-999.99,-999.99,-999.99,-999.99,-999.99,-999.99,-999.99,-999.99,-999.99,-999.99,-999.99,-999.99,-999.99,-999.99,-999.99,-999.99,-999.99,-999.99,-999.99,-999.99,-999.99,-999.99,-999.99,-999.99,-999.99,-999.99,-999.99,-999.99,-999.99,-999.99],[-999.99,-999.99,-999.99,-999.99,-999.99,-999.99,-999.99,-999.99,-999.99,-999.99,-999.99,-999.99,-999.99,-999.99,-999.99,-999.99,-999.99,-999.99,-999.99,-999.99,-999.99,-999.99,-999.99,-999.99,-999.99,-999.99,-999.99,-999.99,-999.99,-999.99,-999.99,-999.99],[-999.99,-999.99,-999.99,-999.99,-999.99,-999.99,-999.99,-999.99,-999.99,-999.99,-999.99,-999.99,-999.99,-999.99,-999.99,-999.99,-999.99,-999.99,-999.99,-999.99,-999.99,-999.99,-999.99,-999.99,-999.99,-999.99,-999.99,-999.99,-999.99,-999.99,-999.99,-999.99],[-999.99,-999.99,-999.99,-999.99,-999.99,-999.99,-999.99,-999.99,-999.99,-999.99,-999.99,-999.99,-999.99,-999.99,-999.99,-999.99,-999.99,-999.99,-999.99,-999.99,-999.99,-999.99,-999.99,-999.99,-999.99,-999.99,-999.99,-999.99,-999.99,-999.99,-999.99,-999.99],[-999.99,-999.99,-999.99,-999.99,-999.99,-999.99,-999.99,-999.99,-999.99,-999.99,-999.99,-999.99,-999.99,-999.99,-999.99,-999.99,-999.99,-999.99,-999.99,-999.99,-999.99,-999.99,-999.99,-999.99,-999.99,-999.99,-999.99,-999.99,-999.99,-999.99,-999.99,-999.99],[-999.99,-999.99,-999.99,-999.99,-999.99,-999.99,-999.99,-999.99,-999.99,-999.99,-999.99,-999.99,-999.99,-999.99,-999.99,-999.99,-999.99,-999.99,-999.99,-999.99,-999.99,-999.99,-999.99,-999.99,-999.99,-999.99,-999.99,-999.99,-999.99,-999.99,-999.99,-999.99],[-999.99,-999.99,-999.99,-999.99,-999.99,-999.99,-999.99,-999.99,-999.99,-999.99,-999.99,-999.99,-999.99,-999.99,-999.99,-999.99,-999.99,-999.99,-999.99,-999.99,-999.99,-999.99,-999.99,-999.99,-999.99,-999.99,-999.99,-999.99,-999.99,-999.99,-999.99,-999.99],[-999.99,-999.99,-999.99,-999.99,-999.99,-999.99,-999.99,-999.99,-999.99,-999.99,-999.99,-999.99,-999.99,-999.99,-999.99,-999.99,-999.99,-999.99,-999.99,-999.99,-999.99,-999.99,-999.99,-999.99,-999.99,-999.99,-999.99,-999.99,-999.99,-999.99,-999.99,-999.99],[-999.99,-999.99,-999.99,-999.99,-999.99,-999.99,-999.99,-999.99,-999.99,-999.99,-999.99,-999.99,-999.99,-999.99,-999.99,-999.99,-999.99,-999.99,-999.99,-999.99,-999.99,-999.99,-999.99,-999.99,-999.99,-999.99,-999.99,-999.99,-999.99,-999.99,-999.99,-999.99],[-999.99,-999.99,-999.99,-999.99,-999.99,-999.99,-999.99,-999.99,-999.99,-999.99,-999.99,-999.99,-999.99,-999.99,-999.99,-999.99,-999.99,-999.99,-999.99,-999.99,-999.99,-999.99,-999.99,-999.99,-999.99,-999.99,-999.99,-999.99,-999.99,-999.99,-999.99,-999.99],[-999.99,-999.99,-999.99,-999.99,-999.99,-999.99,-999.99,-999.99,-999.99,-999.99,-999.99,-999.99,-999.99,-999.99,-999.99,-999.99,-999.99,-999.99,-999.99,-999.99,-999.99,-999.99,-999.99,-999.99,-999.99,-999.99,-999.99,-999.99,-999.99,-999.99,-999.99,-999.99],[-999.99,-999.99,-999.99,-999.99,-999.99,-999.99,-999.99,-999.99,-999.99,-999.99,-999.99,-999.99,-999.99,-999.99,-999.99,-999.99,-999.99,-999.99,-999.99,-999.99,-999.99,-999.99,-999.99,-999.99,-999.99,-999.99,-999.99,-999.99,-999.99,-999.99,-999.99,-999.99]],""directionRelativeTo"":""heading"",""directionConvention"":""approaching"",""directionCount"":36,""directionResolution"":10.0,""directionStart"":0.0,""frequencyCount"":32,""frequencyResolution"":0.01,""frequencyStart"":0.0,""heading"":268.0}",,70.46592212207378
1698746404.2419,62.44626676663757,5.92616337351501,5032,9.0,32.0,4.0,11.0,-1.966552734375,-0.867919921875,85.352783203125,-3.22998046875,-0.142822265625,0.1373291015625,2023-10-31 10:00:04.000,4.901,,,,,
1698746405.2419,62.44626902975144,5.926163541153072,5030,12.0,15.0,-3.0,-4.0,-3.5321044921875,-0.703125,85.3253173828125,0.4229736328125,0.4559326171875,-0.1483154296875,2023-10-31 10:00:05.000,4.914,,,,,
1698746406.2419,62.44626894593239,5.9261628706008205,5038,5.0,-15.0,-2.0,-9.0,-0.90087890625,-0.3790283203125,85.0506591796875,4.5263671875,-0.010986328125,-0.46142578125,2023-10-31 10:00:06.000,5.063,,,,,
1698746407.2419,62.44626634754241,5.926163205876946,5048,-4.0,-35.0,2.0,-9.0,3.9935302734375,-0.692138671875,84.4244384765625,4.39453125,-0.52734375,-0.68115234375,2023-10-31 10:00:07.000,4.987,,,,,
1698746408.2419,62.44626374915242,5.9261634573340425,5055,-10.0,-15.0,-2.0,-1.0,6.0150146484375,-0.955810546875,84.012451171875,-0.8404541015625,0.0274658203125,-0.087890625,2023-10-31 10:00:08.000,4.698,,,,,
1698746409.2419,62.44626458734274,5.926162451505661,5046,-2.0,28.0,-6.0,18.0,2.3016357421875,-0.7196044921875,84.3035888671875,-5.712890625,0.32958984375,0.5438232421875,2023-10-31 10:00:09.000,4.848,,,,,
1698746410.2419,62.44626794010401,5.926161529496312,5024,19.0,36.0,-3.0,17.0,-3.36181640625,-0.68115234375,84.7265625,-4.4439697265625,-0.24169921875,0.3240966796875,2023-10-31 10:00:10.000,4.924,,,,,
1698746411.2419,62.44627020321786,5.926161278039218,5027,24.0,4.0,2.0,-8.0,-5.0042724609375,-1.1370849609375,84.781494140625,1.4337158203125,-0.5218505859375,-0.1483154296875,2023-10-31 10:00:11.000,4.945,,,,,
1698746412.2419,62.44626902975144,5.926161864772439,5048,7.0,-27.0,5.0,-20.0,-1.087646484375,-1.3787841796875,84.4573974609375,5.6195068359375,0.1922607421875,-0.46142578125,2023-10-31 10:00:12.000,4.937,,,,,
1698746413.2419,62.44626651518048,5.926162283867598,5064,-8.0,-25.0,2.0,-7.0,4.361572265625,-0.692138671875,84.0069580078125,4.32861328125,0.94482421875,-0.4998779296875,2023-10-31 10:00:13.000,4.948,,,,,
1698746414.2419,62.44626534171402,5.926162283867598,5064,-7.0,-2.0,-1.0,6.0,6.1468505859375,0.076904296875,83.759765625,-1.065673828125,0.3570556640625,-0.087890625,2023-10-31 10:00:14.000,5.104,,,,,
1698746415.2419,62.446266682818525,5.926161948591473,5057,0.0,27.0,-3.0,7.0,2.471923828125,-0.17578125,83.9739990234375,-5.64697265625,-0.7855224609375,0.5712890625,2023-10-31 10:00:15.000,5.017,,,,,
1698746416.2419,62.446269867941744,5.926161361858249,5051,7.0,33.0,-3.0,6.0,-3.2135009765625,-1.1260986328125,84.407958984375,-4.63623046875,-0.9613037109375,0.2801513671875,2023-10-31 10:00:16.000,4.777,,,,,
1698746417.2419,62.4462716281414,5.92616094276309,5049,9.0,3.0,-2.0,-2.0,-5.1361083984375,-1.680908203125,84.3804931640625,0.9063720703125,-0.010986328125,-0.2142333984375,2023-10-31 10:00:17.000,4.673,,,,,
1698746418.2419,62.44627011939883,5.9261604398489,5054,4.0,-29.0,-2.0,-6.0,-1.6259765625,-1.109619140625,84.034423828125,5.25146484375,0.911865234375,-0.37353515625,2023-10-31 10:00:18.000,4.935,,,,,
1698746419.2419,62.44626718573272,5.9261605236679324,5061,-1.0,-27.0,4.0,-4.0,3.7408447265625,-0.2801513671875,83.7542724609375,4.4329833984375,0.3900146484375,-0.17578125,2023-10-31 10:00:19.000,5.134,,,,,
1698746420.2419,62.44626601226629,5.926161697134376,5065,-4.0,1.0,8.0,-5.0,5.7733154296875,-0.4559326171875,83.682861328125,-0.582275390625,-0.6646728515625,0.06591796875,2023-10-31 10:00:20.000,5.061,,,,,
1698746421.2419,62.44626718573272,5.926163038238883,5069,-9.0,17.0,5.0,-4.0,2.98828125,-1.1041259765625,83.704833984375,-4.4384765625,-0.3515625,0.0933837890625,2023-10-31 10:00:21.000,4.77,,,,,
1698746422.2419,62.44626894593239,5.926163122057915,5066,-8.0,18.0,-3.0,8.0,-1.900634765625,-0.9063720703125,83.9300537109375,-4.6087646484375,0.670166015625,0.4229736328125,2023-10-31 10:00:22.000,4.924,,,,,
1698746423.2419,62.44627045467496,5.926161948591473,5051,7.0,13.0,-7.0,20.0,-5.07568359375,-0.0933837890625,84.429931640625,-1.1260986328125,0.4669189453125,0.5218505859375,2023-10-31 10:00:23.000,5.064,,,,,
1698746424.2419,62.44627078995109,5.92616094276309,5036,23.0,-8.0,-2.0,9.0,-3.18603515625,-0.3076171875,84.4464111328125,4.5703125,-1.0052490234375,-0.615234375,2023-10-31 10:00:24.000,4.985,,,,,
1698746425.2419,62.446268778294325,5.92616144567728,5040,20.0,-31.0,5.0,-15.0,2.801513671875,-1.4996337890625,83.6114501953125,6.0699462890625,-0.9832763671875,-0.9393310546875,2023-10-31 10:00:25.000,4.744,,,,,
1698746426.2419,62.44626609608531,5.926162032410502,5062,-2.0,-22.0,2.0,-24.0,6.8829345703125,-1.6314697265625,82.979736328125,1.2469482421875,0.714111328125,-0.3955078125,2023-10-31 10:00:26.000,4.73,,,,,
1698746427.2419,62.44626601226629,5.926161780953407,5076,-18.0,17.0,-1.0,-6.0,4.5758056640625,-0.5548095703125,83.2159423828125,-5.2294921875,1.1590576171875,0.3900146484375,2023-10-31 10:00:27.000,4.9430000000000005,,,,,
1698746428.2419,62.44626886211336,5.926161780953407,5066,-11.0,35.0,2.0,16.0,-1.658935546875,-0.0494384765625,83.6224365234375,-5.9161376953125,-0.1153564453125,0.186767578125,2023-10-31 10:00:28.000,5.039,,,,,
1698746429.2419,62.44627095758915,5.926162535324693,5050,4.0,6.0,4.0,8.0,-5.3228759765625,-0.6591796875,83.485107421875,-0.87890625,-0.758056640625,-0.3131103515625,2023-10-31 10:00:29.000,5.207000000000002,,,,,
1698746430.2419,62.44626970030368,5.926163122057915,5051,1.0,-29.0,2.0,-10.0,-3.2794189453125,-1.2799072265625,83.1939697265625,4.39453125,-0.17578125,-0.28564453125,2023-10-31 10:00:30.000,4.908,,,,,
1698746431.2431,62.446266682818525,5.926163289695977,5059,-7.0,-30.0,1.0,-2.0,2.032470703125,-1.0546875,82.913818359375,5.1580810546875,0.52734375,-0.3680419921875,2023-10-31 10:00:31.000,4.713,,,,,
1698746432.2431,62.44626492261887,5.926163708791138,5053,-2.0,-9.0,3.0,8.0,5.5865478515625,-0.63720703125,82.6611328125,1.373291015625,0.2252197265625,-0.2471923828125,2023-10-31 10:00:32.000,4.917,,,,,
1698746433.2431,62.44626534171402,5.9261638764292,5048,2.0,17.0,-2.0,-1.0,4.361572265625,-0.4449462890625,82.63916015625,-3.5595703125,0.1702880859375,0.2032470703125,2023-10-31 10:00:33.000,5.062,,,,,
1698746434.2431,62.44626794010401,5.926162786781787,5050,0.0,35.0,-8.0,2.0,-0.5328369140625,-0.340576171875,82.9412841796875,-5.284423828125,-0.02197265625,0.3900146484375,2023-10-31 10:00:34.000,4.883,,,,,
1698746435.2431,62.44627087377011,5.92616144567728,5041,8.0,21.0,-4.0,10.0,-4.2791748046875,-0.670166015625,83.1500244140625,-1.5216064453125,-0.7415771484375,0.1263427734375,2023-10-31 10:00:35.000,5.081,,,,,
1698746436.2431,62.446270538494,5.926161864772439,5038,11.0,-25.0,7.0,-6.0,-2.7191162109375,-1.549072265625,83.111572265625,4.24072265625,-0.85693359375,-0.17578125,2023-10-31 10:00:36.000,4.978,,,,,
1698746437.2431,62.446266682818525,5.926163624972105,5053,-4.0,-48.0,10.0,-21.0,2.7301025390625,-1.8402099609375,82.7325439453125,5.394287109375,0.4229736328125,-0.4998779296875,2023-10-31 10:00:37.000,4.525,,,,,
1698746438.2431,62.44626358151436,5.926164714619517,5068,-20.0,-12.0,0.0,-6.0,5.9930419921875,-0.615234375,82.408447265625,0.5108642578125,1.7193603515625,-0.2252197265625,2023-10-31 10:00:38.000,4.769,,,,,
1698746439.2431,62.44626500643791,5.9261638764292,5061,-13.0,33.0,-7.0,18.0,3.3673095703125,0.758056640625,82.716064453125,-4.8614501953125,0.4998779296875,0.5438232421875,2023-10-31 10:00:39.000,5.428,,,,,
1698746440.2431,62.44626827538014,5.926162786781787,5040,8.0,31.0,-5.0,18.0,-1.834716796875,0.164794921875,83.309326171875,-4.5098876953125,-1.5655517578125,0.3460693359375,2023-10-31 10:00:40.000,5.4110000000000005,,,,,
1698746441.2431,62.44627020321786,5.926162283867598,5036,15.0,3.0,-3.0,-5.0,-4.0594482421875,-1.6754150390625,83.4521484375,0.32958984375,-1.6754150390625,-0.2801513671875,2023-10-31 10:00:41.000,4.527,,,,,
1698746442.2431,62.44626911357045,5.926161864772439,5050,2.0,-23.0,-1.0,-18.0,-1.6094970703125,-2.4334716796875,83.155517578125,3.9605712890625,0.2691650390625,-0.318603515625,2023-10-31 10:00:42.000,4.465,,,,,
1698746443.2431,62.44626651518048,5.926161864772439,5066,-15.0,-28.0,3.0,-13.0,2.603759765625,-1.2744140625,82.9632568359375,3.636474609375,1.658935546875,-0.10986328125,2023-10-31 10:00:43.000,4.737,,,,,
1698746444.2431,62.44626492261887,5.9261628706008205,5070,-21.0,-2.0,6.0,2.0,4.471435546875,0.1263427734375,83.0621337890625,-0.263671875,0.7525634765625,0.1593017578125,2023-10-31 10:00:44.000,5.3610000000000015,,,,,
1698746445.2431,62.44626634754241,5.9261638764292,5059,-12.0,25.0,3.0,16.0,2.252197265625,0.1812744140625,83.29833984375,-3.658447265625,-0.54931640625,0.1812744140625,2023-10-31 10:00:45.000,5.162000000000001,,,,,
1698746446.2431,62.446268778294325,5.926163541153072,5043,6.0,21.0,-6.0,15.0,-1.4556884765625,-0.54931640625,83.2818603515625,-3.1475830078125,-0.703125,-0.1702880859375,2023-10-31 10:00:46.000,4.885,,,,,
1698746447.2431,62.44626978412271,5.926161780953407,5036,14.0,-1.0,-11.0,0.0,-3.1695556640625,-1.0162353515625,83.1884765625,-0.10986328125,-0.274658203125,0.0,2023-10-31 10:00:47.000,4.766,,,,,
1698746448.2431,62.44626886211336,5.926159853115678,5042,8.0,-16.0,-8.0,-8.0,-1.6094970703125,-1.065673828125,83.2379150390625,3.0322265625,-0.0604248046875,-0.1318359375,2023-10-31 10:00:48.000,4.7780000000000005,,,,,
1698746449.2431,62.446267018094645,5.926159266382456,5051,1.0,-22.0,2.0,-6.0,2.0050048828125,-1.1920166015625,83.067626953125,3.5595703125,-0.1593017578125,-0.37353515625,2023-10-31 10:00:49.000,4.827,,,,,
1698746450.2431,62.44626542553306,5.9261599369347095,5059,-6.0,-9.0,3.0,-9.0,4.3341064453125,-1.197509765625,82.6885986328125,0.615234375,0.2252197265625,-0.384521484375,2023-10-31 10:00:50.000,4.9510000000000005,,,,,
1698746451.2431,62.44626576080918,5.926160020753741,5069,-15.0,14.0,-1.0,-7.0,2.8619384765625,-0.63720703125,82.562255859375,-3.197021484375,0.6207275390625,0.0604248046875,2023-10-31 10:00:51.000,4.928,,,,,
1698746452.2431,62.44626777246594,5.926159601658582,5068,-15.0,27.0,-3.0,9.0,-1.065673828125,-0.1922607421875,82.7325439453125,-3.8726806640625,0.19775390625,0.1483154296875,2023-10-31 10:00:52.000,5.024,,,,,
1698746453.2431,62.44626978412271,5.926159098744392,5053,0.0,13.0,-3.0,18.0,-3.482666015625,-0.3460693359375,82.8204345703125,-0.46142578125,-0.3790283203125,-0.087890625,2023-10-31 10:00:53.000,5.195,,,,,
1698746454.2431,62.44626936502754,5.926158344373107,5042,12.0,-18.0,-4.0,4.0,-1.790771484375,-0.911865234375,82.694091796875,3.40576171875,-0.4888916015625,-0.164794921875,2023-10-31 10:00:54.000,4.85,,,,,
1698746455.2431,62.44626710191369,5.926157338544726,5047,8.0,-26.0,-6.0,-10.0,2.17529296875,-1.1260986328125,82.540283203125,3.75732421875,0.010986328125,-0.087890625,2023-10-31 10:00:55.000,4.692,,,,,
1698746456.2431,62.44626559317112,5.9261563327163485,5055,-2.0,-3.0,-3.0,-9.0,4.493408203125,-0.9503173828125,82.4688720703125,0.4449462890625,0.142822265625,-0.06591796875,2023-10-31 10:00:56.000,4.876,,,,,
1698746457.2431,62.44626676663757,5.926156248897314,5061,-8.0,22.0,3.0,-3.0,2.9388427734375,-1.0162353515625,82.3370361328125,-3.1201171875,-0.1318359375,-0.2032470703125,2023-10-31 10:00:57.000,4.958,,,,,
1698746458.2431,62.44626919738948,5.926156751811504,5060,-9.0,25.0,1.0,1.0,-0.76904296875,-0.9503173828125,82.2161865234375,-3.680419921875,0.32958984375,-0.054931640625,2023-10-31 10:00:58.000,5.088,,,,,
1698746459.2431,62.44627078995109,5.926156667992473,5056,-5.0,8.0,-1.0,5.0,-3.2574462890625,-0.4449462890625,82.3480224609375,-0.81298828125,0.4229736328125,0.230712890625,2023-10-31 10:00:59.000,5.011,,,,,
1698746460.2431,62.446270287036896,5.926156667992473,5050,0.0,-15.0,0.0,4.0,-2.1258544921875,-0.28564453125,82.5018310546875,2.87841796875,-0.0933837890625,0.02197265625,2023-10-31 10:01:00.000,4.905,,0.78,,,
1698746461.2431,62.44626835919917,5.926156584173441,5049,2.0,-22.0,-1.0,0.0,1.549072265625,-0.68115234375,82.4249267578125,3.6309814453125,-0.472412109375,-0.0823974609375,2023-10-31 10:01:01.000,4.882,,,,,
1698746462.2431,62.446267018094645,5.926156081259251,5052,-1.0,-5.0,-4.0,-5.0,4.1473388671875,-1.0601806640625,82.1337890625,1.142578125,-0.1373291015625,-0.362548828125,2023-10-31 10:01:02.000,4.797,,,,,
1698746463.2431,62.44626743718982,5.926154907792808,5056,-4.0,13.0,-6.0,0.0,3.2794189453125,-0.8843994140625,81.7877197265625,-2.7630615234375,0.37353515625,-0.1483154296875,2023-10-31 10:01:03.000,4.9830000000000005,,,"{""data"":[[-999.99,-999.99,-999.99,-999.99,-999.99,-999.99,-999.99,-999.99,-999.99,-999.99,-999.99,-999.99,-999.99,-999.99,-999.99,-999.99,-999.99,-999.99,-999.99,-999.99,-999.99,-999.99,-999.99,-999.99,-999.99,-999.99,-999.99,-999.99,-999.99,-999.99,-999.99,-999.99],[-999.99,-999.99,-999.99,-999.99,-999.99,-999.99,-999.99,-999.99,-999.99,-999.99,-999.99,-999.99,-999.99,-999.99,-999.99,-999.99,-999.99,-999.99,-999.99,-999.99,-999.99,-999.99,-999.99,-999.99,-999.99,-999.99,-999.99,-999.99,-999.99,-999.99,-999.99,-999.99],[-999.99,-999.99,-999.99,-999.99,-999.99,-999.99,-999.99,-999.99,-999.99,-999.99,-999.99,-999.99,-999.99,-999.99,-999.99,-999.99,-999.99,-999.99,-999.99,-999.99,-999.99,-999.99,-999.99,-999.99,-999.99,-999.99,-999.99,-999.99,-999.99,-999.99,-999.99,-999.99],[-999.99,-999.99,-999.99,-999.99,-999.99,-999.99,-999.99,-999.99,-999.99,-999.99,-999.99,-999.99,-999.99,-999.99,-999.99,-999.99,-999.99,-999.99,-999.99,-999.99,-999.99,-999.99,-999.99,-999.99,-999.99,-999.99,-999.99,-999.99,-999.99,-999.99,-999.99,-999.99],[-999.99,-999.99,-999.99,-999.99,-999.99,-999.99,-999.99,-999.99,-999.99,-999.99,-999.99,-999.99,-999.99,-999.99,-999.99,-999.99,-999.99,-999.99,-999.99,-999.99,-999.99,-999.99,-999.99,-999.99,-999.99,-999.99,-999.99,-999.99,-999.99,-999.99,-999.99,-999.99],[-999.99,-999.99,-999.99,-999.99,-999.99,-999.99,-999.99,-999.99,-999.99,-999.99,-999.99,-999.99,-999.99,-999.99,-999.99,-999.99,-999.99,-999.99,-999.99,-999.99,-999.99,-999.99,-999.99,-999.99,-999.99,-999.99,-999.99,-999.99,-999.99,-999.99,-999.99,-999.99],[-999.99,-999.99,-999.99,-999.99,-999.99,-999.99,-999.99,-999.99,-999.99,-999.99,-999.99,-999.99,-999.99,-999.99,-999.99,-999.99,-999.99,-999.99,-999.99,-999.99,-999.99,-999.99,-999.99,-999.99,-999.99,-999.99,-999.99,-999.99,-999.99,-999.99,-999.99,-999.99],[-999.99,-999.99,-999.99,-999.99,-999.99,-999.99,-999.99,-999.99,-999.99,-999.99,-999.99,-999.99,-999.99,-999.99,-999.99,-999.99,-999.99,-999.99,-999.99,-999.99,-999.99,-999.99,-999.99,-999.99,-999.99,-999.99,-999.99,-999.99,-999.99,-999.99,-999.99,-999.99],[-999.99,-999.99,-999.99,-999.99,-999.99,-999.99,-999.99,-999.99,-999.99,-999.99,-999.99,-999.99,-999.99,-999.99,-999.99,-999.99,-999.99,-999.99,-999.99,-999.99,-999.99,-999.99,-999.99,-999.99,-999.99,-999.99,-999.99,-999.99,-999.99,-999.99,-999.99,-999.99],[-999.99,-999.99,-999.99,-999.99,-999.99,-999.99,-999.99,-999.99,-999.99,-999.99,-999.99,-999.99,-999.99,-999.99,-999.99,-999.99,-999.99,-999.99,-999.99,-999.99,-999.99,-999.99,-999.99,-999.99,-999.99,-999.99,-999.99,-999.99,-999.99,-999.99,-999.99,-999.99],[-999.99,-999.99,-999.99,-999.99,-999.99,-999.99,-999.99,-999.99,-999.99,-999.99,-999.99,-999.99,-999.99,-999.99,-999.99,-999.99,-999.99,-999.99,-999.99,-999.99,-999.99,-999.99,-999.99,-999.99,-999.99,-999.99,-999.99,-999.99,-999.99,-999.99,-999.99,-999.99],[-999.99,-999.99,-999.99,-999.99,-999.99,-999.99,-999.99,-999.99,-999.99,-999.99,-999.99,-999.99,-999.99,-999.99,-999.99,-999.99,-999.99,-999.99,-999.99,-999.99,-999.99,-999.99,-999.99,-999.99,-999.99,-999.99,-999.99,-999.99,-999.99,-999.99,-999.99,-999.99],[-999.99,-999.99,-999.99,-999.99,-999.99,-999.99,-999.99,-999.99,-999.99,-999.99,-999.99,-999.99,-999.99,-999.99,-999.99,-999.99,-999.99,-999.99,-999.99,-999.99,-999.99,-999.99,-999.99,-999.99,-999.99,-999.99,-999.99,-999.99,-999.99,-999.99,-999.99,-999.99],[-999.99,-999.99,-999.99,-999.99,-999.99,-999.99,-999.99,-999.99,-999.99,-999.99,-999.99,-999.99,-999.99,-999.99,-999.99,-999.99,-999.99,-999.99,-999.99,-999.99,-999.99,-999.99,-999.99,-999.99,-999.99,-999.99,-999.99,-999.99,-999.99,-999.99,-999.99,-999.99],[-999.99,-999.99,-999.99,-999.99,-999.99,-999.99,-999.99,-999.99,-999.99,-999.99,-999.99,-999.99,-999.99,-999.99,-999.99,-999.99,-999.99,-999.99,-999.99,-999.99,-999.99,-999.99,-999.99,-999.99,-999.99,-999.99,-999.99,-999.99,-999.99,-999.99,-999.99,-999.99],[-999.99,-999.99,-999.99,-999.99,-999.99,-999.99,-999.99,-999.99,-999.99,-999.99,-999.99,-999.99,-999.99,-999.99,-999.99,-999.99,-999.99,-999.99,-999.99,-999.99,-999.99,-999.99,-999.99,-999.99,-999.99,-999.99,-999.99,-999.99,-999.99,-999.99,-999.99,-999.99],[-999.99,-999.99,-999.99,-999.99,-999.99,-999.99,-999.99,-999.99,-999.99,-999.99,-999.99,-999.99,-999.99,-999.99,-999.99,-999.99,-999.99,-999.99,-999.99,-999.99,-999.99,-999.99,-999.99,-999.99,-999.99,-999.99,-999.99,-999.99,-999.99,-999.99,-999.99,-999.99],[-999.99,-999.99,-999.99,-999.99,-999.99,-999.99,-999.99,-999.99,-999.99,-999.99,-999.99,-999.99,-999.99,-999.99,-999.99,-999.99,-999.99,-999.99,-999.99,-999.99,-999.99,-999.99,-999.99,-999.99,-999.99,-999.99,-999.99,-999.99,-999.99,-999.99,-999.99,-999.99],[-999.99,-999.99,-999.99,-999.99,-999.99,-999.99,-999.99,-999.99,-999.99,-999.99,-999.99,-999.99,-999.99,-999.99,-999.99,-999.99,-999.99,-999.99,-999.99,-999.99,-999.99,-999.99,-999.99,-999.99,-999.99,-999.99,-999.99,-999.99,-999.99,-999.99,-999.99,-999.99],[-999.99,-999.99,-999.99,-999.99,-999.99,-999.99,-999.99,-999.99,-999.99,-999.99,-999.99,-999.99,-999.99,-999.99,-999.99,-999.99,-999.99,-999.99,-999.99,-999.99,-999.99,-999.99,-999.99,-999.99,-999.99,-999.99,-999.99,-999.99,-999.99,-999.99,-999.99,-999.99],[-999.99,-999.99,-999.99,-999.99,-999.99,-999.99,-999.99,-999.99,-999.99,-999.99,-999.99,-999.99,-999.99,-999.99,-999.99,-999.99,-999.99,-999.99,-999.99,-999.99,-999.99,-999.99,-999.99,-999.99,-999.99,-999.99,-999.99,-999.99,-999.99,-999.99,-999.99,-999.99],[-999.99,-999.99,-999.99,-999.99,-999.99,-999.99,-999.99,-999.99,-999.99,-999.99,-999.99,-999.99,-999.99,-999.99,-999.99,-999.99,-999.99,-999.99,-999.99,-999.99,-999.99,-999.99,-999.99,-999.99,-999.99,-999.99,-999.99,-999.99,-999.99,-999.99,-999.99,-999.99],[-999.99,-999.99,-999.99,-999.99,-999.99,-999.99,-999.99,-999.99,-999.99,-999.99,-999.99,-999.99,-999.99,-999.99,-999.99,-999.99,-999.99,-999.99,-999.99,-999.99,-999.99,-999.99,-999.99,-999.99,-999.99,-999.99,-999.99,-999.99,-999.99,-999.99,-999.99,-999.99],[-999.99,-999.99,-999.99,-999.99,-999.99,-999.99,-999.99,-999.99,-999.99,-999.99,-999.99,-999.99,-999.99,-999.99,-999.99,-999.99,-999.99,-999.99,-999.99,-999.99,-999.99,-999.99,-999.99,-999.99,-999.99,-999.99,-999.99,-999.99,-999.99,-999.99,-999.99,-999.99],[-999.99,-999.99,-999.99,-999.99,-999.99,-999.99,-999.99,-999.99,-999.99,-999.99,-999.99,-999.99,-999.99,-999.99,-999.99,-999.99,-999.99,-999.99,-999.99,-999.99,-999.99,-999.99,-999.99,-999.99,-999.99,-999.99,-999.99,-999.99,-999.99,-999.99,-999.99,-999.99],[-999.99,-999.99,-999.99,-999.99,-999.99,-999.99,-999.99,-999.99,-999.99,-999.99,-999.99,-999.99,-999.99,-999.99,-999.99,-999.99,-999.99,-999.99,-999.99,-999.99,-999.99,-999.99,-999.99,-999.99,-999.99,-999.99,-999.99,-999.99,-999.99,-999.99,-999.99,-999.99],[-999.99,-999.99,-999.99,-999.99,-999.99,-999.99,-999.99,-999.99,-999.99,-999.99,-999.99,-999.99,-999.99,-999.99,-999.99,-999.99,-999.99,-999.99,-999.99,-999.99,-999.99,-999.99,-999.99,-999.99,-999.99,-999.99,-999.99,-999.99,-999.99,-999.99,-999.99,-999.99],[-999.99,-999.99,-999.99,-999.99,-999.99,-999.99,-999.99,-999.99,-999.99,-999.99,-999.99,-999.99,-999.99,-999.99,-999.99,-999.99,-999.99,-999.99,-999.99,-999.99,-999.99,-999.99,-999.99,-999.99,-999.99,-999.99,-999.99,-999.99,-999.99,-999.99,-999.99,-999.99],[-999.99,-999.99,-999.99,-999.99,-999.99,-999.99,-999.99,-999.99,-999.99,-999.99,-999.99,-999.99,-999.99,-999.99,-999.99,-999.99,-999.99,-999.99,-999.99,-999.99,-999.99,-999.99,-999.99,-999.99,-999.99,-999.99,-999.99,-999.99,-999.99,-999.99,-999.99,-999.99],[-999.99,-999.99,-999.99,-999.99,-999.99,-999.99,-999.99,-999.99,-999.99,-999.99,-999.99,-999.99,-999.99,-999.99,-999.99,-999.99,-999.99,-999.99,-999.99,-999.99,-999.99,-999.99,-999.99,-999.99,-999.99,-999.99,-999.99,-999.99,-999.99,-999.99,-999.99,-999.99],[-999.99,-999.99,-999.99,-999.99,-999.99,-999.99,-999.99,-999.99,-999.99,-999.99,-999.99,-999.99,-999.99,-999.99,-999.99,-999.99,-999.99,-999.99,-999.99,-999.99,-999.99,-999.99,-999.99,-999.99,-999.99,-999.99,-999.99,-999.99,-999.99,-999.99,-999.99,-999.99],[-999.99,-999.99,-999.99,-999.99,-999.99,-999.99,-999.99,-999.99,-999.99,-999.99,-999.99,-999.99,-999.99,-999.99,-999.99,-999.99,-999.99,-999.99,-999.99,-999.99,-999.99,-999.99,-999.99,-999.99,-999.99,-999.99,-999.99,-999.99,-999.99,-999.99,-999.99,-999.99],[-999.99,-999.99,-999.99,-999.99,-999.99,-999.99,-999.99,-999.99,-999.99,-999.99,-999.99,-999.99,-999.99,-999.99,-999.99,-999.99,-999.99,-999.99,-999.99,-999.99,-999.99,-999.99,-999.99,-999.99,-999.99,-999.99,-999.99,-999.99,-999.99,-999.99,-999.99,-999.99],[-999.99,-999.99,-999.99,-999.99,-999.99,-999.99,-999.99,-999.99,-999.99,-999.99,-999.99,-999.99,-999.99,-999.99,-999.99,-999.99,-999.99,-999.99,-999.99,-999.99,-999.99,-999.99,-999.99,-999.99,-999.99,-999.99,-999.99,-999.99,-999.99,-999.99,-999.99,-999.99],[-999.99,-999.99,-999.99,-999.99,-999.99,-999.99,-999.99,-999.99,-999.99,-999.99,-999.99,-999.99,-999.99,-999.99,-999.99,-999.99,-999.99,-999.99,-999.99,-999.99,-999.99,-999.99,-999.99,-999.99,-999.99,-999.99,-999.99,-999.99,-999.99,-999.99,-999.99,-999.99],[-999.99,-999.99,-999.99,-999.99,-999.99,-999.99,-999.99,-999.99,-999.99,-999.99,-999.99,-999.99,-999.99,-999.99,-999.99,-999.99,-999.99,-999.99,-999.99,-999.99,-999.99,-999.99,-999.99,-999.99,-999.99,-999.99,-999.99,-999.99,-999.99,-999.99,-999.99,-999.99]],""directionRelativeTo"":""heading"",""directionConvention"":""approaching"",""directionCount"":36,""directionResolution"":10.0,""directionStart"":0.0,""frequencyCount"":32,""frequencyResolution"":0.01,""frequencyStart"":0.0,""heading"":268.0}",,70.46592212207378
1698746464.2431,62.44626936502754,5.926153818145393,5046,4.0,26.0,-2.0,15.0,-0.6097412109375,-0.6756591796875,81.9854736328125,-4.3011474609375,-0.1373291015625,0.4888916015625,2023-10-31 10:01:04.000,5.053,,,,,
1698746465.2431,62.44627154432237,5.926154153421521,5033,17.0,20.0,3.0,6.0,-3.724365234375,-1.065673828125,82.342529296875,-1.3677978515625,-0.46142578125,0.164794921875,2023-10-31 10:01:05.000,4.812,,,,,
1698746466.2431,62.44627221487463,5.926154488697648,5041,10.0,-8.0,2.0,-21.0,-2.724609375,-1.197509765625,82.15576171875,3.0926513671875,0.2691650390625,-0.41748046875,2023-10-31 10:01:06.000,4.718999999999999,,,,,
1698746467.2431,62.446269867941744,5.926154991611838,5067,-16.0,-36.0,5.0,-24.0,1.702880859375,-0.6317138671875,81.5899658203125,4.8614501953125,0.7415771484375,-0.560302734375,2023-10-31 10:01:07.000,5.141,,,,,
1698746468.2431,62.446266682818525,5.926155913621187,5074,-25.0,-27.0,4.0,8.0,5.1361083984375,-0.1318359375,81.2164306640625,1.219482421875,0.1483154296875,-0.142822265625,2023-10-31 10:01:08.000,5.122000000000001,,,,,
1698746469.2444,62.44626617990436,5.926155829802156,5052,-4.0,15.0,-3.0,29.0,3.548583984375,-0.274658203125,81.3153076171875,-4.0484619140625,-0.37353515625,0.2581787109375,2023-10-31 10:01:09.000,4.926,,,,,
1698746470.2444,62.44626911357045,5.92615457251668,5029,20.0,39.0,-9.0,15.0,-1.5216064453125,-0.87890625,81.485595703125,-5.086669921875,-0.703125,0.098876953125,2023-10-31 10:01:10.000,4.68,,,,,
1698746471.2444,62.44627238251268,5.926152979955077,5028,22.0,28.0,-5.0,-9.0,-4.910888671875,-1.3897705078125,81.3153076171875,-1.219482421875,-0.3076171875,-0.230712890625,2023-10-31 10:01:11.000,4.875,,,,,
1698746472.2444,62.44627330452204,5.926152728497982,5043,9.0,-8.0,4.0,-15.0,-3.218994140625,-1.4776611328125,80.9912109375,4.10888671875,0.2197265625,-0.41748046875,2023-10-31 10:01:12.000,4.934,,,,,
1698746473.2444,62.44627087377011,5.926154237240553,5057,-5.0,-37.0,11.0,-13.0,2.449951171875,-1.0107421875,80.5023193359375,6.0369873046875,0.6317138671875,-0.5987548828125,2023-10-31 10:01:13.000,4.977,,,,,
1698746474.2444,62.44626760482788,5.926156500354409,5068,-17.0,-27.0,11.0,-10.0,6.712646484375,-0.3790283203125,80.0628662109375,1.7962646484375,0.4010009765625,-0.3021240234375,2023-10-31 10:01:14.000,4.994,,,,,
1698746475.2444,62.44626718573272,5.926157925277948,5072,-22.0,15.0,3.0,3.0,4.9822998046875,-0.1263427734375,79.9969482421875,-4.8175048828125,-0.0054931640625,0.0714111328125,2023-10-31 10:01:15.000,4.83,,,,,
1698746476.2444,62.44627020321786,5.9261575900018215,5056,-7.0,40.0,-6.0,24.0,-1.3458251953125,-0.3131103515625,80.233154296875,-6.734619140625,-0.296630859375,0.296630859375,2023-10-31 10:01:16.000,5.025,,,,,
1698746477.2444,62.44627338834108,5.926155913621187,5030,20.0,23.0,-9.0,24.0,-6.0809326171875,-0.6646728515625,80.4364013671875,-2.098388671875,-0.3900146484375,-0.010986328125,2023-10-31 10:01:17.000,5.059,,,,,
1698746478.2444,62.44627363979816,5.926154237240553,5019,33.0,-15.0,-6.0,2.0,-4.6527099609375,-1.0546875,80.3375244140625,4.4110107421875,-0.318603515625,-0.274658203125,2023-10-31 10:01:18.000,4.751,,,,,
1698746479.2444,62.44627137668432,5.926153566688299,5028,26.0,-27.0,0.0,-14.0,1.3897705078125,-1.2908935546875,80.0848388671875,6.4434814453125,-0.2471923828125,-0.3570556640625,2023-10-31 10:01:19.000,4.732,,,,,
1698746480.2444,62.44626970030368,5.926154404878616,5049,7.0,-5.0,9.0,-26.0,6.3995361328125,-1.3897705078125,79.6673583984375,2.845458984375,-0.17578125,-0.450439453125,2023-10-31 10:01:20.000,4.9030000000000005,,,,,
1698746481.2444,62.44627045467496,5.926156667992473,5077,-23.0,13.0,14.0,-31.0,6.229248046875,-1.373291015625,79.189453125,-2.9443359375,0.186767578125,-0.3350830078125,2023-10-31 10:01:21.000,4.9910000000000005,,,,,
1698746482.2444,62.44627196341753,5.926159182563424,5094,-44.0,15.0,10.0,-7.0,1.38427734375,-0.736083984375,79.1400146484375,-5.95458984375,1.0601806640625,0.2032470703125,2023-10-31 10:01:22.000,4.926,,,,,
1698746483.2444,62.44627338834108,5.926160104572773,5076,-30.0,14.0,-1.0,35.0,-4.2022705078125,0.4998779296875,79.4805908203125,-4.383544921875,1.0491943359375,0.54931640625,2023-10-31 10:01:23.000,5.103,,,,,
1698746484.2444,62.44627422653138,5.926159266382456,5031,16.0,4.0,-8.0,48.0,-5.95458984375,0.780029296875,79.881591796875,1.0052490234375,-0.714111328125,0.1812744140625,2023-10-31 10:01:24.000,5.25,,,,,
1698746485.2444,62.4462734721601,5.926158092916013,5003,48.0,-19.0,-4.0,11.0,-1.966552734375,-0.7965087890625,79.8431396484375,6.295166015625,-1.988525390625,-0.560302734375,2023-10-31 10:01:25.000,4.9030000000000005,,,,,
1698746486.2444,62.44627087377011,5.926158176735044,5018,37.0,-31.0,3.0,-28.0,4.625244140625,-2.5872802734375,79.1015625,5.5645751953125,-1.20849609375,-0.8294677734375,2023-10-31 10:01:26.000,4.365,,,,,
1698746487.2444,62.44626936502754,5.9261587634682655,5052,4.0,2.0,3.0,-30.0,7.20703125,-2.3895263671875,78.4918212890625,-0.867919921875,1.2908935546875,-0.4998779296875,2023-10-31 10:01:27.000,4.496,,,,,
1698746488.2444,62.44627154432237,5.926159182563424,5068,-16.0,38.0,3.0,-9.0,3.197021484375,-0.5877685546875,78.4478759765625,-6.2017822265625,1.9061279296875,0.10986328125,2023-10-31 10:01:28.000,5.127000000000002,,,,,
1698746489.2444,62.446275064721696,5.9261599369347095,5065,-17.0,29.0,5.0,3.0,-2.9827880859375,0.5987548828125,78.629150390625,-4.9053955078125,0.3680419921875,0.087890625,2023-10-31 10:01:29.000,5.468,,,,,
1698746490.2444,62.44627573527397,5.926161026582122,5061,-15.0,-13.0,5.0,1.0,-5.0152587890625,0.164794921875,78.4368896484375,1.0272216796875,-0.9722900390625,-0.3955078125,2023-10-31 10:01:30.000,5.222,,,,,
1698746491.2444,62.44627322070301,5.926161780953407,5054,-10.0,-34.0,0.0,12.0,-1.702880859375,-0.9283447265625,78.0303955078125,4.94384765625,-0.8953857421875,-0.4449462890625,2023-10-31 10:01:31.000,4.665,,,,,
1698746492.2444,62.44627062231302,5.926161194220184,5036,8.0,-19.0,-6.0,21.0,2.9718017578125,-1.4007568359375,77.6788330078125,3.6529541015625,0.0164794921875,-0.3021240234375,2023-10-31 10:01:32.000,4.646,,,,,
1698746493.2444,62.44627011939883,5.926159853115678,5024,22.0,7.0,-6.0,2.0,4.713134765625,-1.1920166015625,77.6129150390625,-0.3515625,0.2911376953125,-0.186767578125,2023-10-31 10:01:33.000,4.703,,,,,
1698746494.2444,62.44627196341753,5.926158931106329,5033,13.0,30.0,-3.0,-15.0,2.4884033203125,-0.9283447265625,77.464599609375,-3.5430908203125,0.2362060546875,-0.1318359375,2023-10-31 10:01:34.000,4.965,,,,,
1698746495.2444,62.44627464562655,5.926158260554075,5046,-1.0,24.0,-2.0,-10.0,-1.329345703125,-0.6756591796875,77.3492431640625,-3.2794189453125,0.3955078125,0.0,2023-10-31 10:01:35.000,5.207000000000002,,,,,
1698746496.2444,62.44627556763589,5.9261578414589176,5047,-3.0,0.0,1.0,3.0,-3.065185546875,-0.428466796875,77.3162841796875,0.1373291015625,0.0,0.010986328125,2023-10-31 10:01:36.000,5.037,,,,,
1698746497.2444,62.44627464562655,5.926158428192139,5044,-1.0,-16.0,5.0,-1.0,-1.1810302734375,-0.72509765625,77.156982421875,3.2958984375,-0.4888916015625,-0.274658203125,2023-10-31 10:01:37.000,4.968999999999999,,,,,
1698746498.2444,62.44627271778882,5.926159434020518,5051,-7.0,-22.0,4.0,-10.0,2.4169921875,-1.065673828125,76.8328857421875,3.1805419921875,-0.098876953125,-0.3680419921875,2023-10-31 10:01:38.000,4.788,,,,,
1698746499.2444,62.44627146050334,5.926159098744392,5054,-12.0,-3.0,-4.0,2.0,4.0594482421875,-0.780029296875,76.6900634765625,-0.186767578125,0.52734375,-0.1263427734375,2023-10-31 10:01:39.000,4.691,,,,,
1698746500.2444,62.44627263396978,5.926157925277948,5042,-1.0,23.0,-7.0,17.0,2.054443359375,-0.46142578125,76.695556640625,-3.3453369140625,0.02197265625,0.0823974609375,2023-10-31 10:01:40.000,4.922,,,,,
1698746501.2444,62.446275064721696,5.926156500354409,5030,13.0,26.0,-7.0,8.0,-1.5875244140625,-0.648193359375,76.7724609375,-3.27392578125,-0.3515625,0.2032470703125,2023-10-31 10:01:41.000,5.109,,,,,
1698746502.2444,62.4462769087404,5.92615507543087,5029,14.0,12.0,-6.0,-4.0,-3.460693359375,-0.90087890625,76.9757080078125,-0.032958984375,-0.1593017578125,0.208740234375,2023-10-31 10:01:42.000,4.931,,,,,
1698746503.2444,62.4462769087404,5.926154488697648,5035,8.0,-11.0,1.0,-6.0,-1.593017578125,-1.109619140625,76.9317626953125,3.53759765625,-0.2362060546875,-0.3131103515625,2023-10-31 10:01:43.000,4.791,,,,,
1698746504.2444,62.446275064721696,5.926155410706997,5042,0.0,-24.0,7.0,-9.0,2.65869140625,-1.1920166015625,76.4593505859375,4.02099609375,0.06591796875,-0.5548095703125,2023-10-31 10:01:44.000,4.787,,,,,
1698746505.2444,62.44627338834108,5.926156500354409,5051,-8.0,-8.0,3.0,-6.0,4.8779296875,-0.8294677734375,76.1077880859375,-0.0384521484375,0.54931640625,-0.1922607421875,2023-10-31 10:01:45.000,5.03,,,,,
1698746506.2444,62.44627422653138,5.9261563327163485,5051,-9.0,21.0,-4.0,4.0,2.4993896484375,-0.3131103515625,76.168212890625,-4.163818359375,0.3240966796875,0.120849609375,2023-10-31 10:01:46.000,5.075,,,,,
1698746507.2456,62.44627657346427,5.926155410706997,5045,-3.0,23.0,-6.0,7.0,-1.9390869140625,-0.318603515625,76.2396240234375,-3.8616943359375,-0.3240966796875,-0.054931640625,2023-10-31 10:01:47.000,4.8210000000000015,,,,,
1698746508.2456,62.446277495473616,5.926154488697648,5041,1.0,-4.0,-4.0,1.0,-3.9935302734375,-0.7635498046875,76.1297607421875,-0.0384521484375,-0.494384765625,-0.06591796875,2023-10-31 10:01:48.000,4.973,,,,,
1698746509.2456,62.44627607055008,5.926153650507331,5040,2.0,-22.0,-5.0,3.0,-1.99951171875,-0.999755859375,76.036376953125,3.5760498046875,-0.06591796875,-0.24169921875,2023-10-31 10:01:49.000,4.868,,,,,
1698746510.2456,62.44627422653138,5.926152979955077,5034,10.0,-12.0,-2.0,12.0,1.8731689453125,-0.9942626953125,75.684814453125,3.4661865234375,-0.06591796875,-0.450439453125,2023-10-31 10:01:50.000,4.812,,,,,
1698746511.2456,62.44627405889332,5.926153063774109,5029,17.0,6.0,2.0,-3.0,3.9111328125,-1.175537109375,75.2618408203125,0.3900146484375,-0.19775390625,-0.252685546875,2023-10-31 10:01:51.000,4.899,,,,,
1698746512.2456,62.44627514854074,5.926153315231204,5045,1.0,14.0,0.0,-25.0,2.70263671875,-1.1151123046875,75.1190185546875,-2.373046875,0.3790283203125,-0.0933837890625,2023-10-31 10:01:52.000,4.914,,,,,
1698746513.2456,62.44627640582621,5.926153063774109,5066,-21.0,12.0,-1.0,-13.0,-0.230712890625,-0.516357421875,75.1959228515625,-2.9388427734375,0.5548095703125,0.24169921875,2023-10-31 10:01:53.000,4.988,,,,,
1698746514.2456,62.44627724401654,5.926152979955077,5060,-18.0,6.0,0.0,19.0,-2.449951171875,-0.1593017578125,75.3277587890625,-0.9832763671875,-0.02197265625,0.0054931640625,2023-10-31 10:01:54.000,5.183,,,,,
1698746515.2456,62.44627707637847,5.9261531475931415,5037,6.0,-11.0,0.0,23.0,-1.746826171875,-0.4559326171875,75.157470703125,2.208251953125,-0.472412109375,-0.3515625,2023-10-31 10:01:55.000,4.963,,,,,
1698746516.2456,62.4462753161788,5.926153231412172,5028,18.0,-24.0,-1.0,2.0,1.197509765625,-0.9063720703125,74.794921875,3.01025390625,-0.3131103515625,-0.230712890625,2023-10-31 10:01:56.000,4.834,,,,,
1698746517.2456,62.44627363979816,5.92615264467895,5034,14.0,-8.0,-5.0,-6.0,3.065185546875,-1.043701171875,74.7125244140625,0.3460693359375,0.0494384765625,0.0384521484375,2023-10-31 10:01:57.000,4.65,,,,,
1698746518.2456,62.44627447798848,5.926151052117348,5037,10.0,23.0,-10.0,-3.0,1.7578125,-0.889892578125,74.9102783203125,-2.625732421875,0.1922607421875,0.1922607421875,2023-10-31 10:01:58.000,4.884,,,,,
1698746519.2456,62.4462769087404,5.926149459555745,5044,4.0,23.0,-4.0,-11.0,-0.94482421875,-0.867919921875,75.0860595703125,-2.1533203125,-0.17578125,0.1043701171875,2023-10-31 10:01:59.000,4.937,,,,,
1698746520.2456,62.446277746930726,5.926149794831872,5056,-11.0,-5.0,8.0,-16.0,-1.6259765625,-1.16455078125,74.99267578125,0.977783203125,-0.2801513671875,-0.3955078125,2023-10-31 10:02:00.000,5.045,,0.77,,,
1698746521.2456,62.44627607055008,5.926152057945727,5066,-22.0,-25.0,13.0,-4.0,0.46142578125,-1.1810302734375,74.564208984375,2.6202392578125,0.296630859375,-0.4119873046875,2023-10-31 10:02:01.000,4.965,,,,,
1698746522.2456,62.44627405889332,5.926153985783457,5057,-16.0,-13.0,5.0,16.0,2.3345947265625,-0.4339599609375,74.300537109375,0.7415771484375,0.8734130859375,-0.032958984375,2023-10-31 10:02:02.000,4.902,,,,,
1698746523.2456,62.44627414271236,5.926153650507331,5035,6.0,14.0,-7.0,25.0,1.549072265625,0.2471923828125,74.50927734375,-2.032470703125,0.24169921875,0.384521484375,2023-10-31 10:02:03.000,5.001,,,"{""data"":[[-999.99,-999.99,-999.99,-999.99,-999.99,-999.99,-999.99,-999.99,-999.99,-999.99,-999.99,-999.99,-999.99,-999.99,-999.99,-999.99,-999.99,-999.99,-999.99,-999.99,-999.99,-999.99,-999.99,-999.99,-999.99,-999.99,-999.99,-999.99,-999.99,-999.99,-999.99,-999.99],[-999.99,-999.99,-999.99,-999.99,-999.99,-999.99,-999.99,-999.99,-999.99,-999.99,-999.99,-999.99,-999.99,-999.99,-999.99,-999.99,-999.99,-999.99,-999.99,-999.99,-999.99,-999.99,-999.99,-999.99,-999.99,-999.99,-999.99,-999.99,-999.99,-999.99,-999.99,-999.99],[-999.99,-999.99,-999.99,-999.99,-999.99,-999.99,-999.99,-999.99,-999.99,-999.99,-999.99,-999.99,-999.99,-999.99,-999.99,-999.99,-999.99,-999.99,-999.99,-999.99,-999.99,-999.99,-999.99,-999.99,-999.99,-999.99,-999.99,-999.99,-999.99,-999.99,-999.99,-999.99],[-999.99,-999.99,-999.99,-999.99,-999.99,-999.99,-999.99,-999.99,-999.99,-999.99,-999.99,-999.99,-999.99,-999.99,-999.99,-999.99,-999.99,-999.99,-999.99,-999.99,-999.99,-999.99,-999.99,-999.99,-999.99,-999.99,-999.99,-999.99,-999.99,-999.99,-999.99,-999.99],[-999.99,-999.99,-999.99,-999.99,-999.99,-999.99,-999.99,-999.99,-999.99,-999.99,-999.99,-999.99,-999.99,-999.99,-999.99,-999.99,-999.99,-999.99,-999.99,-999.99,-999.99,-999.99,-999.99,-999.99,-999.99,-999.99,-999.99,-999.99,-999.99,-999.99,-999.99,-999.99],[-999.99,-999.99,-999.99,-999.99,-999.99,-999.99,-999.99,-999.99,-999.99,-999.99,-999.99,-999.99,-999.99,-999.99,-999.99,-999.99,-999.99,-999.99,-999.99,-999.99,-999.99,-999.99,-999.99,-999.99,-999.99,-999.99,-999.99,-999.99,-999.99,-999.99,-999.99,-999.99],[-999.99,-999.99,-999.99,-999.99,-999.99,-999.99,-999.99,-999.99,-999.99,-999.99,-999.99,-999.99,-999.99,-999.99,-999.99,-999.99,-999.99,-999.99,-999.99,-999.99,-999.99,-999.99,-999.99,-999.99,-999.99,-999.99,-999.99,-999.99,-999.99,-999.99,-999.99,-999.99],[-999.99,-999.99,-999.99,-999.99,-999.99,-999.99,-999.99,-999.99,-999.99,-999.99,-999.99,-999.99,-999.99,-999.99,-999.99,-999.99,-999.99,-999.99,-999.99,-999.99,-999.99,-999.99,-999.99,-999.99,-999.99,-999.99,-999.99,-999.99,-999.99,-999.99,-999.99,-999.99],[-999.99,-999.99,-999.99,-999.99,-999.99,-999.99,-999.99,-999.99,-999.99,-999.99,-999.99,-999.99,-999.99,-999.99,-999.99,-999.99,-999.99,-999.99,-999.99,-999.99,-999.99,-999.99,-999.99,-999.99,-999.99,-999.99,-999.99,-999.99,-999.99,-999.99,-999.99,-999.99],[-999.99,-999.99,-999.99,-999.99,-999.99,-999.99,-999.99,-999.99,-999.99,-999.99,-999.99,-999.99,-999.99,-999.99,-999.99,-999.99,-999.99,-999.99,-999.99,-999.99,-999.99,-999.99,-999.99,-999.99,-999.99,-999.99,-999.99,-999.99,-999.99,-999.99,-999.99,-999.99],[-999.99,-999.99,-999.99,-999.99,-999.99,-999.99,-999.99,-999.99,-999.99,-999.99,-999.99,-999.99,-999.99,-999.99,-999.99,-999.99,-999.99,-999.99,-999.99,-999.99,-999.99,-999.99,-999.99,-999.99,-999.99,-999.99,-999.99,-999.99,-999.99,-999.99,-999.99,-999.99],[-999.99,-999.99,-999.99,-999.99,-999.99,-999.99,-999.99,-999.99,-999.99,-999.99,-999.99,-999.99,-999.99,-999.99,-999.99,-999.99,-999.99,-999.99,-999.99,-999.99,-999.99,-999.99,-999.99,-999.99,-999.99,-999.99,-999.99,-999.99,-999.99,-999.99,-999.99,-999.99],[-999.99,-999.99,-999.99,-999.99,-999.99,-999.99,-999.99,-999.99,-999.99,-999.99,-999.99,-999.99,-999.99,-999.99,-999.99,-999.99,-999.99,-999.99,-999.99,-999.99,-999.99,-999.99,-999.99,-999.99,-999.99,-999.99,-999.99,-999.99,-999.99,-999.99,-999.99,-999.99],[-999.99,-999.99,-999.99,-999.99,-999.99,-999.99,-999.99,-999.99,-999.99,-999.99,-999.99,-999.99,-999.99,-999.99,-999.99,-999.99,-999.99,-999.99,-999.99,-999.99,-999.99,-999.99,-999.99,-999.99,-999.99,-999.99,-999.99,-999.99,-999.99,-999.99,-999.99,-999.99],[-999.99,-999.99,-999.99,-999.99,-999.99,-999.99,-999.99,-999.99,-999.99,-999.99,-999.99,-999.99,-999.99,-999.99,-999.99,-999.99,-999.99,-999.99,-999.99,-999.99,-999.99,-999.99,-999.99,-999.99,-999.99,-999.99,-999.99,-999.99,-999.99,-999.99,-999.99,-999.99],[-999.99,-999.99,-999.99,-999.99,-999.99,-999.99,-999.99,-999.99,-999.99,-999.99,-999.99,-999.99,-999.99,-999.99,-999.99,-999.99,-999.99,-999.99,-999.99,-999.99,-999.99,-999.99,-999.99,-999.99,-999.99,-999.99,-999.99,-999.99,-999.99,-999.99,-999.99,-999.99],[-999.99,-999.99,-999.99,-999.99,-999.99,-999.99,-999.99,-999.99,-999.99,-999.99,-999.99,-999.99,-999.99,-999.99,-999.99,-999.99,-999.99,-999.99,-999.99,-999.99,-999.99,-999.99,-999.99,-999.99,-999.99,-999.99,-999.99,-999.99,-999.99,-999.99,-999.99,-999.99],[-999.99,-999.99,-999.99,-999.99,-999.99,-999.99,-999.99,-999.99,-999.99,-999.99,-999.99,-999.99,-999.99,-999.99,-999.99,-999.99,-999.99,-999.99,-999.99,-999.99,-999.99,-999.99,-999.99,-999.99,-999.99,-999.99,-999.99,-999.99,-999.99,-999.99,-999.99,-999.99],[-999.99,-999.99,-999.99,-999.99,-999.99,-999.99,-999.99,-999.99,-999.99,-999.99,-999.99,-999.99,-999.99,-999.99,-999.99,-999.99,-999.99,-999.99,-999.99,-999.99,-999.99,-999.99,-999.99,-999.99,-999.99,-999.99,-999.99,-999.99,-999.99,-999.99,-999.99,-999.99],[-999.99,-999.99,-999.99,-999.99,-999.99,-999.99,-999.99,-999.99,-999.99,-999.99,-999.99,-999.99,-999.99,-999.99,-999.99,-999.99,-999.99,-999.99,-999.99,-999.99,-999.99,-999.99,-999.99,-999.99,-999.99,-999.99,-999.99,-999.99,-999.99,-999.99,-999.99,-999.99],[-999.99,-999.99,-999.99,-999.99,-999.99,-999.99,-999.99,-999.99,-999.99,-999.99,-999.99,-999.99,-999.99,-999.99,-999.99,-999.99,-999.99,-999.99,-999.99,-999.99,-999.99,-999.99,-999.99,-999.99,-999.99,-999.99,-999.99,-999.99,-999.99,-999.99,-999.99,-999.99],[-999.99,-999.99,-999.99,-999.99,-999.99,-999.99,-999.99,-999.99,-999.99,-999.99,-999.99,-999.99,-999.99,-999.99,-999.99,-999.99,-999.99,-999.99,-999.99,-999.99,-999.99,-999.99,-999.99,-999.99,-999.99,-999.99,-999.99,-999.99,-999.99,-999.99,-999.99,-999.99],[-999.99,-999.99,-999.99,-999.99,-999.99,-999.99,-999.99,-999.99,-999.99,-999.99,-999.99,-999.99,-999.99,-999.99,-999.99,-999.99,-999.99,-999.99,-999.99,-999.99,-999.99,-999.99,-999.99,-999.99,-999.99,-999.99,-999.99,-999.99,-999.99,-999.99,-999.99,-999.99],[-999.99,-999.99,-999.99,-999.99,-999.99,-999.99,-999.99,-999.99,-999.99,-999.99,-999.99,-999.99,-999.99,-999.99,-999.99,-999.99,-999.99,-999.99,-999.99,-999.99,-999.99,-999.99,-999.99,-999.99,-999.99,-999.99,-999.99,-999.99,-999.99,-999.99,-999.99,-999.99],[-999.99,-999.99,-999.99,-999.99,-999.99,-999.99,-999.99,-999.99,-999.99,-999.99,-999.99,-999.99,-999.99,-999.99,-999.99,-999.99,-999.99,-999.99,-999.99,-999.99,-999.99,-999.99,-999.99,-999.99,-999.99,-999.99,-999.99,-999.99,-999.99,-999.99,-999.99,-999.99],[-999.99,-999.99,-999.99,-999.99,-999.99,-999.99,-999.99,-999.99,-999.99,-999.99,-999.99,-999.99,-999.99,-999.99,-999.99,-999.99,-999.99,-999.99,-999.99,-999.99,-999.99,-999.99,-999.99,-999.99,-999.99,-999.99,-999.99,-999.99,-999.99,-999.99,-999.99,-999.99],[-999.99,-999.99,-999.99,-999.99,-999.99,-999.99,-999.99,-999.99,-999.99,-999.99,-999.99,-999.99,-999.99,-999.99,-999.99,-999.99,-999.99,-999.99,-999.99,-999.99,-999.99,-999.99,-999.99,-999.99,-999.99,-999.99,-999.99,-999.99,-999.99,-999.99,-999.99,-999.99],[-999.99,-999.99,-999.99,-999.99,-999.99,-999.99,-999.99,-999.99,-999.99,-999.99,-999.99,-999.99,-999.99,-999.99,-999.99,-999.99,-999.99,-999.99,-999.99,-999.99,-999.99,-999.99,-999.99,-999.99,-999.99,-999.99,-999.99,-999.99,-999.99,-999.99,-999.99,-999.99],[-999.99,-999.99,-999.99,-999.99,-999.99,-999.99,-999.99,-999.99,-999.99,-999.99,-999.99,-999.99,-999.99,-999.99,-999.99,-999.99,-999.99,-999.99,-999.99,-999.99,-999.99,-999.99,-999.99,-999.99,-999.99,-999.99,-999.99,-999.99,-999.99,-999.99,-999.99,-999.99],[-999.99,-999.99,-999.99,-999.99,-999.99,-999.99,-999.99,-999.99,-999.99,-999.99,-999.99,-999.99,-999.99,-999.99,-999.99,-999.99,-999.99,-999.99,-999.99,-999.99,-999.99,-999.99,-999.99,-999.99,-999.99,-999.99,-999.99,-999.99,-999.99,-999.99,-999.99,-999.99],[-999.99,-999.99,-999.99,-999.99,-999.99,-999.99,-999.99,-999.99,-999.99,-999.99,-999.99,-999.99,-999.99,-999.99,-999.99,-999.99,-999.99,-999.99,-999.99,-999.99,-999.99,-999.99,-999.99,-999.99,-999.99,-999.99,-999.99,-999.99,-999.99,-999.99,-999.99,-999.99],[-999.99,-999.99,-999.99,-999.99,-999.99,-999.99,-999.99,-999.99,-999.99,-999.99,-999.99,-999.99,-999.99,-999.99,-999.99,-999.99,-999.99,-999.99,-999.99,-999.99,-999.99,-999.99,-999.99,-999.99,-999.99,-999.99,-999.99,-999.99,-999.99,-999.99,-999.99,-999.99],[-999.99,-999.99,-999.99,-999.99,-999.99,-999.99,-999.99,-999.99,-999.99,-999.99,-999.99,-999.99,-999.99,-999.99,-999.99,-999.99,-999.99,-999.99,-999.99,-999.99,-999.99,-999.99,-999.99,-999.99,-999.99,-999.99,-999.99,-999.99,-999.99,-999.99,-999.99,-999.99],[-999.99,-999.99,-999.99,-999.99,-999.99,-999.99,-999.99,-999.99,-999.99,-999.99,-999.99,-999.99,-999.99,-999.99,-999.99,-999.99,-999.99,-999.99,-999.99,-999.99,-999.99,-999.99,-999.99,-999.99,-999.99,-999.99,-999.99,-999.99,-999.99,-999.99,-999.99,-999.99],[-999.99,-999.99,-999.99,-999.99,-999.99,-999.99,-999.99,-999.99,-999.99,-999.99,-999.99,-999.99,-999.99,-999.99,-999.99,-999.99,-999.99,-999.99,-999.99,-999.99,-999.99,-999.99,-999.99,-999.99,-999.99,-999.99,-999.99,-999.99,-999.99,-999.99,-999.99,-999.99],[-999.99,-999.99,-999.99,-999.99,-999.99,-999.99,-999.99,-999.99,-999.99,-999.99,-999.99,-999.99,-999.99,-999.99,-999.99,-999.99,-999.99,-999.99,-999.99,-999.99,-999.99,-999.99,-999.99,-999.99,-999.99,-999.99,-999.99,-999.99,-999.99,-999.99,-999.99,-999.99]],""directionRelativeTo"":""heading"",""directionConvention"":""approaching"",""directionCount"":36,""directionResolution"":10.0,""directionStart"":0.0,""frequencyCount"":32,""frequencyResolution"":0.01,""frequencyStart"":0.0,""heading"":268.0}",,70.46592212207378
1698746524.2456,62.44627607055008,5.926151722669601,5017,28.0,25.0,-11.0,14.0,-0.955810546875,-0.1593017578125,74.90478515625,-2.164306640625,-0.9503173828125,0.3240966796875,2023-10-31 10:02:04.000,5.079,,,,,
1698746525.2456,62.44627783074975,5.926149962469935,5018,29.0,10.0,-6.0,-13.0,-1.8731689453125,-1.318359375,74.959716796875,0.5767822265625,-1.20849609375,-0.2197265625,2023-10-31 10:02:05.000,4.795,,,,,
1698746526.2456,62.44627724401654,5.926150130107999,5042,5.0,-18.0,7.0,-33.0,0.1812744140625,-2.1148681640625,74.5697021484375,2.98828125,-0.2911376953125,-0.4998779296875,2023-10-31 10:02:06.000,4.665,,,,,
1698746527.2456,62.44627489708365,5.926152309402824,5072,-28.0,-28.0,15.0,-26.0,3.09814453125,-1.6204833984375,73.992919921875,2.142333984375,1.1480712890625,-0.538330078125,2023-10-31 10:02:07.000,4.81,,,,,
1698746528.2456,62.446273053064935,5.926154656335712,5078,-37.0,-8.0,9.0,10.0,3.4552001953125,-0.1812744140625,73.8665771484375,-1.6644287109375,1.4556884765625,0.098876953125,2023-10-31 10:02:08.000,5.132999999999999,,,,,
1698746529.2456,62.44627389125525,5.92615507543087,5048,-8.0,23.0,-4.0,42.0,0.15380859375,0.714111328125,74.3499755859375,-4.3450927734375,0.142822265625,0.604248046875,2023-10-31 10:02:09.000,5.283,,,,,
1698746530.2456,62.446276741102345,5.926153734326363,5009,33.0,31.0,-9.0,32.0,-3.515625,-0.0494384765625,74.7784423828125,-2.17529296875,-1.494140625,0.054931640625,2023-10-31 10:02:10.000,5.019,,,,,
1698746531.2456,62.446278249844895,5.926152309402824,5004,42.0,1.0,-6.0,-14.0,-3.22998046875,-1.5380859375,74.6136474609375,2.7410888671875,-1.12060546875,-0.5218505859375,2023-10-31 10:02:11.000,4.808,,,,,
1698746532.2456,62.4462766572833,5.926152057945727,5034,13.0,-30.0,4.0,-37.0,1.1480712890625,-1.9775390625,74.036865234375,5.0592041015625,0.2471923828125,-0.5438232421875,2023-10-31 10:02:12.000,4.503,,,,,
1698746533.2456,62.44627380743623,5.926153566688299,5064,-18.0,-26.0,10.0,-21.0,5.1361083984375,-1.2579345703125,73.751220703125,2.1148681640625,1.0272216796875,-0.2252197265625,2023-10-31 10:02:13.000,4.765,,,,,
1698746534.2456,62.44627288542689,5.9261552430689335,5068,-25.0,7.0,6.0,7.0,4.50439453125,-0.3680419921875,73.9654541015625,-3.14208984375,0.626220703125,0.3076171875,2023-10-31 10:02:14.000,5.118,,,,,
1698746535.2456,62.446275064721696,5.92615557834506,5051,-9.0,35.0,-2.0,22.0,-0.2471923828125,-0.076904296875,74.410400390625,-5.262451171875,-0.0933837890625,0.41748046875,2023-10-31 10:02:15.000,5.0710000000000015,,,,,
1698746536.2456,62.44627783074975,5.926154907792808,5035,9.0,17.0,-4.0,9.0,-4.141845703125,-0.4010009765625,74.5806884765625,-1.8072509765625,-0.50537109375,-0.0164794921875,2023-10-31 10:02:16.000,5.085,,,,,
1698746537.2456,62.44627732783556,5.926154740154742,5037,9.0,-24.0,1.0,-7.0,-3.153076171875,-0.8734130859375,74.443359375,3.372802734375,-0.3955078125,-0.24169921875,2023-10-31 10:02:17.000,4.8610000000000015,,,,,
1698746538.2456,62.44627439416946,5.9261552430689335,5044,3.0,-31.0,3.0,-1.0,1.318359375,-1.153564453125,74.256591796875,4.5867919921875,-0.1702880859375,-0.17578125,2023-10-31 10:02:18.000,4.676,,,,,
1698746539.2456,62.44627271778882,5.92615557834506,5041,6.0,-4.0,1.0,5.0,4.471435546875,-1.153564453125,74.1412353515625,1.16455078125,0.120849609375,-0.1318359375,2023-10-31 10:02:19.000,4.776,,,,,
1698746540.2456,62.44627405889332,5.926155159249902,5039,9.0,28.0,-5.0,0.0,3.2025146484375,-0.9063720703125,74.278564453125,-3.306884765625,0.2911376953125,0.24169921875,2023-10-31 10:02:20.000,4.933,,,,,
1698746541.2456,62.446277411654606,5.926153650507331,5044,6.0,36.0,-7.0,-6.0,-0.7965087890625,-0.5548095703125,74.5147705078125,-3.768310546875,0.3240966796875,-0.0054931640625,2023-10-31 10:02:21.000,4.97,,,,,
1698746542.2456,62.44627908803522,5.926152812317014,5052,-3.0,-3.0,0.0,-12.0,-2.8619384765625,-0.4229736328125,74.4158935546875,-0.087890625,-0.0604248046875,-0.1702880859375,2023-10-31 10:02:22.000,5.067,,,,,
1698746543.2456,62.44627699255943,5.926153818145393,5060,-13.0,-35.0,8.0,-5.0,-1.07666015625,-0.692138671875,74.4049072265625,2.9718017578125,-0.3460693359375,0.1043701171875,2023-10-31 10:02:23.000,4.976,,,,,
1698746544.2469,62.44627439416946,5.926155159249902,5053,-8.0,-17.0,4.0,14.0,1.8951416015625,-1.0986328125,74.5367431640625,2.2796630859375,-0.274658203125,0.0604248046875,2023-10-31 10:02:24.000,4.794,,,,,
1698746545.2469,62.44627422653138,5.926155326887965,5039,7.0,8.0,-2.0,10.0,2.845458984375,-1.1260986328125,74.443359375,-0.37353515625,0.252685546875,-0.2471923828125,2023-10-31 10:02:25.000,4.8660000000000005,,,,,
1698746546.2469,62.44627514854074,5.92615457251668,5041,6.0,9.0,-5.0,-12.0,1.5216064453125,-0.6536865234375,74.28955078125,-1.9775390625,0.5218505859375,-0.1318359375,2023-10-31 10:02:26.000,4.923,,,,,
1698746547.2469,62.446275651454926,5.926153650507331,5055,-7.0,2.0,-4.0,-9.0,-0.63720703125,-0.2471923828125,74.4158935546875,-1.9610595703125,0.120849609375,0.3076171875,2023-10-31 10:02:27.000,4.985,,,,,
